[
  {
    "name": "Piazza De Ferrari",
    "imageUrl": "http://cdn77.orangesmile.com/common/img_cities_w680/genoa--118400-6.jpg",
    "location": {"lat": 44.407186, "lng": 8.933985}
  },
  {
    "name": "Palazzo Reale",
    "imageUrl": "https://thumb7.shutterstock.com/display_pic_with_logo/1277254/483693547/stock-photo-courtyard-of-palazzo-reale-in-genoa-italy-483693547.jpg",
    "location": {"lat": 44.414925, "lng": 8.926164}
  },
  {
    "name": "Porta Soprana",
    "imageUrl": "https://previews.123rf.com/images/benkrut/benkrut1603/benkrut160300091/54893399-porta-soprana-in-genoa-genoa-liguria-italy-.jpg",
    "location": {"lat": 44.405563, "lng": 8.934505}
  },
  {
    "name": "San Lorenzo Cathedral",
    "imageUrl": "http://www.italymagazine.com/sites/default/files/feature-story/gallery/bigstock-genoa-cathedral-in-italy-95697005.jpg",
    "location": {"lat": 44.407638, "lng": 8.931459}
  },
  {
    "name": "Via Garibaldi",
    "imageUrl": "http://www.circoloartisticotunnel.it/wp-content/uploads/2015/09/circolo_artistico_tunnel_genova_401-1030x684.jpg",
    "location": {"lat": 44.411076, "lng": 8.933145}
  },
  {
    "name": "Hotel Bristol Palace",
    "imageUrl": "https://www.allcruisehotels.com/wp-content/uploads/2016/07/genoa-hotel-bristol-palace-sm.jpg",
    "location": {"lat": 44.406909, "lng": 8.93635}
  }
]